{
	"countries":[
{"geodns-id": 241, "name": "United States", "latitude": "37.0902", "longitude": "-95.7129", "country_code": "US"},
{"geodns-id": 259, "name": "United States - Region I", "latitude": "42.3601", "longitude": "-71.0589", "country_code": "US"},
{"geodns-id": 260, "name": "United States - Region II", "latitude": "40.7128", "longitude": "-74.0060", "country_code": "US"},
{"geodns-id": 261, "name": "United States - Region III", "latitude": "38.8951", "longitude": "-77.0364", "country_code": "US"},
{"geodns-id": 262, "name": "United States - Region IV", "latitude": "33.748995", "longitude": "-84.387982", "country_code": "US"},
{"geodns-id": 267, "name": "United States - Region IX", "latitude": "37.7749", "longitude": "-122.4194", "country_code": "US"},
{"geodns-id": 263, "name": "United States - Region V", "latitude": "41.8781", "longitude": "-87.6298", "country_code": "US"},
{"geodns-id": 264, "name": "United States - Region VI", "latitude": "32.7767", "longitude": "-96.7970", "country_code": "US"},
{"geodns-id": 265, "name": "United States - Region VII", "latitude": "39.0997", "longitude": "-94.5786", "country_code": "US"},
{"geodns-id": 266, "name": "United States - Region VIII", "latitude": "39.7392", "longitude": "-104.9903", "country_code": "US"},
{"geodns-id": 268, "name": "United States - Region X", "latitude": "47.6062", "longitude": "-122.3321", "country_code": "US"},
{"geodns-id": 46, "name": "Canada", "latitude": "56.1304", "longitude": "-106.3468", "country_code": "CA"},
{"geodns-id": 269, "name": "Canada - East", "latitude": "45.4215", "longitude": "-75.6972", "country_code": "CA"},
{"geodns-id": 271, "name": "Canada - North", "latitude": "64.8255", "longitude": "-124.8457", "country_code": "CA"},
{"geodns-id": 270, "name": "Canada - West", "latitude": "53.9333", "longitude": "-116.5765", "country_code": "CA"},
{"geodns-id": 273, "name": "Asia - Central", "latitude": "41.2044", "longitude": "74.7661", "country_code": "KG"},
{"geodns-id": 274, "name": "Asia - East", "latitude": "36.2048", "longitude": "138.2529", "country_code": "JP"},
{"geodns-id": 272, "name": "Asia - Middle East", "latitude": "33.2232", "longitude": "43.6793", "country_code": "IQ"},
{"geodns-id": 275, "name": "Asia - South", "latitude": "20.5937", "longitude": "78.9629", "country_code": "IN"},
{"geodns-id": 70, "name": "Algeria", "latitude": "28.0339", "longitude": "1.6596", "country_code": "DZ"},
{"geodns-id": 18, "name": "Argentina", "latitude": "-38.4161", "longitude": "-63.6167", "country_code": "AR"},
{"geodns-id": 15, "name": "Armenia", "latitude": "40.0691", "longitude": "45.0382", "country_code": "AM"},
{"geodns-id": 21, "name": "Australia", "latitude": "-25.2744", "longitude": "133.7751", "country_code": "AU"},
{"geodns-id": 20, "name": "Austria", "latitude": "47.5162", "longitude": "14.5501", "country_code": "AT"},
{"geodns-id": 24, "name": "Azerbaijan", "latitude": "40.1431", "longitude": "47.5769", "country_code": "AZ"},
{"geodns-id": 40, "name": "Bahamas", "latitude": "25.0343", "longitude": "-77.3963", "country_code": "BS"},
{"geodns-id": 27, "name": "Bangladesh", "latitude": "23.6850", "longitude": "90.3563", "country_code": "BD"},
{"geodns-id": 44, "name": "Belarus", "latitude": "53.7098", "longitude": "27.9534", "country_code": "BY"},
{"geodns-id": 28, "name": "Belgium", "latitude": "50.5039", "longitude": "4.4699", "country_code": "BE"},
{"geodns-id": 39, "name": "Brazil", "latitude": "-14.2350", "longitude": "-51.9253", "country_code": "BR"},
{"geodns-id": 30, "name": "Bulgaria", "latitude": "42.7339", "longitude": "25.4858", "country_code": "BG"},
{"geodns-id": 125, "name": "Cambodia", "latitude": "12.5657", "longitude": "104.9909", "country_code": "KH"},
{"geodns-id": 54, "name": "Chile", "latitude": "-35.6751", "longitude": "-71.5430", "country_code": "CL"},
{"geodns-id": 56, "name": "China", "latitude": "35.8617","longitude": "104.1954", "country_code": "CN"},
{"geodns-id": 57, "name": "Colombia", "latitude": "4.5709", "longitude": "-74.2973", "country_code": "CO"},
{"geodns-id": 106, "name": "Croatia", "latitude": "45.1000", "longitude": "15.2000", "country_code": "HR"},
{"geodns-id": 63, "name": "Cyprus", "latitude": "35.1264", "longitude": "33.4299", "country_code": "CY"},
{"geodns-id": 64, "name": "Czech Republic", "latitude": "49.8175", "longitude": "15.4730", "country_code": "CZ"},
{"geodns-id": 67, "name": "Denmark", "latitude": "56.2639", "longitude": "9.5018", "country_code": "DK"},
{"geodns-id": 69, "name": "Dominican Republic", "latitude": "18.7357", "longitude": "-70.1627", "country_code": "DO"},
{"geodns-id": 71, "name": "Ecuador", "latitude": "-1.8312", "longitude": "-78.1834", "country_code": "EC"},
{"geodns-id": 73, "name": "Egypt", "latitude": "26.8206", "longitude": "30.8025", "country_code": "EG"},
{"geodns-id": 72, "name": "Estonia", "latitude": "58.5953", "longitude": "25.0136", "country_code": "EE"},
{"geodns-id": 78, "name": "Finland", "latitude": "61.9241", "longitude": "25.7482", "country_code": "FI"},
{"geodns-id": 83, "name": "France", "latitude": "46.6034", "longitude": "1.8883", "country_code": "FR"},
{"geodns-id": 87, "name": "Georgia", "latitude": "42.3154", "longitude": "43.3569", "country_code": "GE"},
{"geodns-id": 65, "name": "Germany", "latitude": "51.1657", "longitude": "10.4515", "country_code": "DE"},
{"geodns-id": 97, "name": "Greece", "latitude": "39.0742", "longitude": "21.8243", "country_code": "GR"},
{"geodns-id": 103, "name": "Hong Kong", "latitude": "22.3193", "longitude": "114.1694", "country_code": "HK"},
{"geodns-id": 108, "name": "Hungary", "latitude": "47.1625", "longitude": "19.5033", "country_code": "HU"},
{"geodns-id": 117, "name": "Iceland", "latitude": "64.9631", "longitude": "-19.0208", "country_code": "IS"},
{"geodns-id": 113, "name": "India", "latitude": "20.5937", "longitude": "78.9629", "country_code": "IN"},
{"geodns-id": 109, "name": "Indonesia", "latitude": "-0.7893", "longitude": "113.9213", "country_code": "ID"},
{"geodns-id": 116, "name": "Iran", "latitude": "32.4279", "longitude": "53.6880", "country_code": "IR"},
{"geodns-id": 115, "name": "Iraq", "latitude": "33.2232", "longitude": "43.6793", "country_code": "IQ"},
{"geodns-id": 110, "name": "Ireland", "latitude": "53.4129", "longitude": "-8.2439", "country_code": "IE"},
{"geodns-id": 111, "name": "Israel", "latitude": "31.0461", "longitude": "34.8516", "country_code": "IL"},
{"geodns-id": 118, "name": "Italy", "latitude": "41.8719", "longitude": "12.5674", "country_code": "IT"},
{"geodns-id": 122, "name": "Japan", "latitude": "36.2048", "longitude": "138.2529", "country_code": "JP"},
{"geodns-id": 133, "name": "Kazakhstan", "latitude": "48.0196", "longitude": "66.9237", "country_code": "KZ"},
{"geodns-id": 123, "name": "Kenya", "latitude": "-0.0236", "longitude": "37.9062", "country_code": "KE"},
{"geodns-id": 131, "name": "Kuwait", "latitude": "29.3117", "longitude": "47.4818", "country_code": "KW"},
{"geodns-id": 124, "name": "Kyrgyzstan", "latitude": "41.2044", "longitude": "74.7661", "country_code": "KG"},
{"geodns-id": 143, "name": "Latvia", "latitude": "56.8796", "longitude": "24.6032", "country_code": "LV"},
{"geodns-id": 141, "name": "Lithuania", "latitude": "55.1694", "longitude": "23.8813", "country_code": "LT"},
{"geodns-id": 142, "name": "Luxembourg", "latitude": "49.8153", "longitude": "6.1296", "country_code": "LU"},
{"geodns-id": 152, "name": "Macedonia", "latitude": "41.6086", "longitude": "21.7453", "country_code": "MK"},
{"geodns-id": 150, "name": "Madagascar", "latitude": "-18.8792", "longitude": "47.5079", "country_code": "MG"},
{"geodns-id": 166, "name": "Malaysia", "latitude": "3.14", "longitude": "101.6869", "country_code": "MY"},
{"geodns-id": 161, "name": "Malta", "latitude": "35.9375", "longitude": "14.3754", "country_code": "MT"},
{"geodns-id": 165, "name": "Mexico", "latitude": "23.6345", "longitude": "-102.5528", "country_code": "MX"},
{"geodns-id": 147, "name": "Moldova", "latitude": "47.4116", "longitude": "28.3699", "country_code": "MD"},
{"geodns-id": 145, "name": "Morocco", "latitude": "31.7917", "longitude": "-7.0926", "country_code": "MA"},
{"geodns-id": 176, "name": "Nepal", "latitude": "28.3949", "longitude": "84.1240", "country_code": "NP"},
{"geodns-id": 174, "name": "Netherlands", "latitude": "52.1326", "longitude": "5.2913", "country_code": "NL"},
{"geodns-id": 179, "name": "New Zealand", "latitude": "-40.9006", "longitude": "174.8860", "country_code": "NZ"},
{"geodns-id": 172, "name": "Nigeria", "latitude": "9.0820", "longitude": "8.6753", "country_code": "NG"},
{"geodns-id": 129, "name": "North Korea", "latitude": "40.3399", "longitude": "127.5101", "country_code": "KP"},
{"geodns-id": 175, "name": "Norway", "latitude": "60.4720", "longitude": "8.4689", "country_code": "NO"},
{"geodns-id": 186, "name": "Pakistan", "latitude": "30.3753", "longitude": "69.3451", "country_code": "PK"},
{"geodns-id": 182, "name": "Peru", "latitude": "-9.189967", "longitude": "-75.015152", "country_code": "PE"},
{"geodns-id": 185, "name": "Philippines", "latitude": "12.8797", "longitude": "121.7740", "country_code": "PH"},
{"geodns-id": 187, "name": "Poland", "latitude": "51.9194", "longitude": "19.1451", "country_code": "PL"},
{"geodns-id": 192, "name": "Portugal", "latitude": "39.3999", "longitude": "-8.2245", "country_code": "PT"},
{"geodns-id": 197, "name": "Romania", "latitude": "45.9432", "longitude": "24.9668", "country_code": "RO"},
{"geodns-id": 199, "name": "Russian Federation", "latitude": "61.5240", "longitude": "105.3188", "country_code": "RU"},
{"geodns-id": 201, "name": "Saudi Arabia", "latitude": "23.8859", "longitude": "45.0792", "country_code": "SA"},
{"geodns-id": 198, "name": "Serbia", "latitude": "44.0165", "longitude": "21.0059", "country_code": "RS"},
{"geodns-id": 206, "name": "Singapore", "latitude": "1.3521", "longitude": "103.8198", "country_code": "SG"},
{"geodns-id": 210, "name": "Slovakia", "latitude": "48.6690", "longitude": "19.6990", "country_code": "SK"},
{"geodns-id": 208, "name": "Slovenia", "latitude": "46.1512", "longitude": "14.9955", "country_code": "SI"},
{"geodns-id": 255, "name": "South Africa", "latitude": "-30.5595", "longitude": "22.9375", "country_code": "ZA"},
{"geodns-id": 130, "name": "South Korea", "latitude": "35.9078", "longitude": "127.7669", "country_code": "KR"},
{"geodns-id": 76, "name": "Spain", "latitude": "40.4637", "longitude": "-3.7492", "country_code": "ES"},
{"geodns-id": 138, "name": "Sri Lanka", "latitude": "7.8731", "longitude": "80.7718", "country_code": "LK"},
{"geodns-id": 204, "name": "Sudan", "latitude": "12.8628", "longitude": "30.2176", "country_code": "SD"},
{"geodns-id": 205, "name": "Sweden", "latitude": "60.1282", "longitude": "18.6435", "country_code": "SE"},
{"geodns-id": 51, "name": "Switzerland", "latitude": "46.8182", "longitude": "8.2275", "country_code": "CH"},
{"geodns-id": 236, "name": "Taiwan", "latitude": "23.6978", "longitude": "120.9605", "country_code": "TW"},
{"geodns-id": 226, "name": "Thailand", "latitude": "15.8700", "longitude": "100.9925", "country_code": "TH"},
{"geodns-id": 231, "name": "Tunisia", "latitude": "33.8869", "longitude": "9.5375", "country_code": "TN"},
{"geodns-id": 233, "name": "Turkey", "latitude": "38.9637", "longitude": "35.2433", "country_code": "TR"},
{"geodns-id": 238, "name": "Ukraine", "latitude": "48.3794", "longitude": "31.1656", "country_code": "UA"},
{"geodns-id": 10, "name": "United Arab Emirates", "latitude": "23.4241", "longitude": "53.8478", "country_code": "AE"},
{"geodns-id": 85, "name": "United Kingdom", "latitude": "55.3781", "longitude": "-3.4360", "country_code": "GB"},
{"geodns-id": 243, "name": "Uzbekistan", "latitude": "41.3775", "longitude": "64.5853", "country_code": "UZ"},
{"geodns-id": 246, "name": "Venezuela", "latitude": "6.4238", "longitude": "-66.5897", "country_code": "VE"},
{"geodns-id": 249, "name": "Vietnam", "latitude": "14.0583", "longitude": "108.2772", "country_code": "VN"},
{"geodns-id": 253, "name": "Yemen", "latitude": "15.5527", "longitude": "48.5164", "country_code": "YE"},
{"geodns-id": 256, "name": "Zambia", "latitude": "-13.1339", "longitude": "27.8493", "country_code": "ZM"},
{"geodns-id": 257, "name": "Zimbabwe", "latitude": "-19.0154", "longitude": "29.1549", "country_code": "ZW"}]
}
